     3.04           OBSERVATION DATA    M: Mixed            RINEX VERSION / TYPE
RTKCONV demo5 b34k                      20250317 091921 UTC PGM / RUN BY / DATE 
format: RINEX                                               COMMENT             
log: C:\Users\Ivan_PolyU_Dktp\Dropbox\HUAWEI Exp\20210610\epCOMMENT             
  h\hksc161d.21g                                            COMMENT             
log: C:\Users\Ivan_PolyU_Dktp\Dropbox\HUAWEI Exp\20210610\epCOMMENT             
  h\hksc161d.21o                                            COMMENT             
log: C:\Users\Ivan_PolyU_Dktp\Dropbox\HUAWEI Exp\20210610\epCOMMENT             
  h\hksc161e.21g                                            COMMENT             
HKSC                                                        MARKER NAME         
23014M001                                                   MARKER NUMBER       
                                                            MARKER TYPE         
                                                            OBSERVER / AGENCY   
1870254             LEICA GR50          4.31/7.403          REC # / TYPE / VERS 
725196              LEIAR25.R4      LEIT                    ANT # / TYPE        
 -2414266.9197  5386768.9868  2407460.0314                  APPROX POSITION XYZ 
        0.0083        0.0000        0.0000                  ANTENNA: DELTA H/E/N
G   16 C1C L1C D1C S1C C2W L2W D2W S2W C2S L2S D2S S2S C5Q  SYS / # / OBS TYPES 
       L5Q D5Q S5Q                                          SYS / # / OBS TYPES 
R   12 C1C L1C D1C S1C C2C L2C D2C S2C C2P L2P D2P S2P      SYS / # / OBS TYPES 
E   12 C1C L1C D1C S1C C7Q L7Q D7Q S7Q C5Q L5Q D5Q S5Q      SYS / # / OBS TYPES 
C    8 C2I L2I D2I S2I C7I L7I D7I S7I                      SYS / # / OBS TYPES 
  2021    06    10    03    35   54.0000000     GPS         TIME OF FIRST OBS   
  2021    06    10    03    39   18.0000000     GPS         TIME OF LAST OBS    
G L1C                                                       SYS / PHASE SHIFT   
G L2W  0.00000                                              SYS / PHASE SHIFT   
G L2S -0.25000                                              SYS / PHASE SHIFT   
G L5Q -0.25000                                              SYS / PHASE SHIFT   
R L1C                                                       SYS / PHASE SHIFT   
R L2C                                                       SYS / PHASE SHIFT   
R L2P  0.25000                                              SYS / PHASE SHIFT   
E L1C  0.50000                                              SYS / PHASE SHIFT   
E L7Q -0.25000                                              SYS / PHASE SHIFT   
E L5Q -0.25000                                              SYS / PHASE SHIFT   
C L2I                                                       SYS / PHASE SHIFT   
C L7I                                                       SYS / PHASE SHIFT   
 24 R01  1 R02 -4 R03  5 R04  6 R05  1 R06 -4 R07  5 R08  6 GLONASS SLOT / FRQ #
    R09 -2 R10 -7 R11  0 R12 -1 R13 -2 R14 -7 R15  0 R16 -1 GLONASS SLOT / FRQ #
    R17  4 R18 -3 R19  3 R20  2 R21  4 R22 -3 R23  3 R24  2 GLONASS SLOT / FRQ #
 C1C    0.000 C1P    0.000 C2C    0.000 C2P    0.000        GLONASS COD/PHS/BIS 
                                                            END OF HEADER       
> 2021 06 10 03 35 54.0000000  0 38                     
G01  21017284.400   110446565.03818     -2579.589          49.400    21017287.840    86062265.32418     -2010.072          49.300    21017287.920    86062269.07818     -2010.072          48.550    21017287.380    82476345.82218     -1926.288          51.850  
G03  22181210.040   116563056.44218      1471.531          48.800    22181214.860    90828381.47318      1146.646          48.650    22181215.760    90828385.22317      1146.646          47.050    22181215.840    87043888.15718      1098.898          50.250  
G06  23982477.720   126028784.21217      3156.308          43.150    23982484.720    98204255.13217      2459.458          43.150    23982485.660    98204254.89217      2459.459          43.350    23982485.760    94112411.36417      2357.068          44.750  
G07  22039385.740   115817718.94918     -2996.417          49.150    22039388.120    90247552.08618     -2334.874          48.850    22039388.540    90247568.84217     -2334.874          43.650                                                                  
G08  24988064.800   131313137.37116     -1838.617          40.800    24988071.920   102321955.03715     -1432.688          34.700    24988072.480   102321916.81316     -1432.689          40.100    24988071.900    98058443.41317     -1372.924          42.250  
G14  21249670.880   111667772.95318      2129.861          49.000    21249671.820    87013871.17317      1659.631          45.400    21249672.260    87013854.91818      1659.631          49.150    21249675.940    83388296.42218      1590.435          52.000  
G17  22331734.360   117354060.48818       558.107          48.200    22331735.180    91444740.47717       434.885          47.950    22331735.740    91444730.23817       434.885          45.100                                                                  
G19  23583592.520   123932618.97917      1609.533          44.050    23583593.220    96570876.59816      1254.180          40.300                                                                                                                                  
G21  23750035.620   124807243.11417     -3169.200          46.550    23750036.640    97252368.34916     -2469.510          39.000                                                                                                                                  
G22  22704479.500   119312845.73818      -507.595          48.300    22704478.840    92971090.49317      -395.529          42.400                                                                                                                                  
G28  22678620.340   119176962.01917      2507.336          47.700    22678620.560    92865167.60916      1953.766          40.000                                                                                                                                  
G30  21340540.540   112145301.02418     -1160.183          49.300    21340543.780    87385953.83818      -904.042          49.600    21340544.580    87385931.58618      -904.042          48.650    21340544.700    83744876.29418      -866.348          52.750  
R09  20296287.200   108381000.56718     -2876.573          51.300    20296290.760    84296335.05618     -2237.341          48.600    20296290.800    84296343.30617     -2237.340          47.700  
R10  19341524.120   103101198.53218       876.069          49.050                                                                                                                                  
R20  20828389.620   111378737.78316     -2354.284          37.600    20828394.960    86627904.02017     -1831.112          45.950    20828394.060    86627905.26917     -1831.112          46.350  
R21  21027562.180   112522740.80918       692.661          49.700    21027565.040    87517731.73017       538.733          46.800    21027565.020    87517709.98217       538.734          46.150  
E01  27706921.960   145600865.41917      2651.539          43.550                                                                    27706928.260   108727952.31617      1980.056          42.950  
E13  23629642.520   124174611.38418     -1284.568          51.250    23629645.220    95146779.75016      -984.247          39.350    23629647.300    92727790.37418      -959.229          51.050  
E15  26935891.820   141549046.17417     -2513.075          45.000    26935898.420   108459699.65215     -1925.870          30.700    26935900.260   105702162.41017     -1876.701          42.800  
E21  23973217.320   125980119.89118      1372.667          50.600    23973220.780    96530216.94416      1051.755          39.550    23973222.680    94076072.48318      1025.082          50.900  
E26  24052226.940   126395330.15218      1128.768          49.800    24052232.140    96848378.08816       864.821          38.050    24052234.020    94386130.15118       842.837          49.150  
E27  24045119.940   126357905.26818     -1157.809          50.750    24045124.320    96819698.68816      -887.138          39.200    24045126.380    94358162.39218      -864.593          50.750  
C01  37373469.040   194613454.19917         7.119          47.200                                                                  
C02  37116658.960   193276173.56317        24.155          42.950                                                                  
C03  36383668.680   189459300.62917        37.436          47.350    36383666.680   146501955.82315        29.098          35.000  
C04  38344233.600   199668479.27117         9.743          43.550                                                                  
C05  39259258.220   204433242.58916        25.013          41.000                                                                  
C07  36037824.260   187658398.12917       506.768          47.400    36037820.460   145109354.80916       391.993          36.050  
C08  36444565.000   189776408.93717       424.647          46.850    36444561.800   146747132.74915       328.260          35.900  
C09  39525731.540   205820847.13416     -1475.813          41.500                                                                  
C10  36602033.180   190596386.22617       680.967          45.350    36602032.400   147381187.71515       526.561          34.250  
C11  22742520.020   118426258.34117     -1293.706          47.450    22742519.820    91574695.80516     -1000.409          37.500  
C13  36903171.840   192164493.68817       772.128          47.600    36903177.040   148593796.81015       596.961          32.750  
C14  25255204.860   131510479.60617      2171.643          42.050    25255205.640   101692244.42914      1678.955          28.000  
C23  23220109.740   120913214.35618      1537.921          49.700                                                                  
C24  25664012.380   133639235.05617     -3222.730          47.200                                                                  
C25  22260447.840   115915976.17618     -1416.294          50.400                                                                  
C28  24875627.860   129533919.98417      1408.003          46.500                                                                  
> 2021 06 10 03 35 55.0000000  0 38                     
G01  21017775.360   110449145.050 8     -2580.096          49.300    21017778.800    86064275.723 8     -2010.467          49.500    21017778.880    86064279.477 7     -2010.467          47.750    21017778.340    82478272.457 8     -1926.673          52.550  
G03  22180930.100   116561585.319 8      1470.959          48.750    22180934.920    90827235.143 8      1146.201          48.850    22180935.820    90827238.895 7      1146.201          46.400    22180935.880    87042789.587 8      1098.393          50.900  
G06  23981877.160   126025628.240 7      3155.646          43.300    23981884.160    98201795.933 7      2458.944          43.050    23981885.080    98201795.693 7      2458.944          42.450    23981885.200    94110054.629 7      2356.680          45.350  
G07  22039956.020   115820715.707 8     -2996.722          49.100    22039958.380    90249887.222 8     -2335.110          48.750    22039958.820    90249903.980 7     -2335.110          43.050                                                                  
G08  24988414.720   131314976.092 6     -1838.527          41.050    24988421.860   102323387.841 6     -1432.614          36.650    24988422.400   102323349.593 6     -1432.618          39.200    24988421.820    98059816.505 7     -1373.101          42.900  
G14  21249265.680   111665643.537 8      2129.342          48.950    21249266.620    87012211.887 7      1659.226          44.600    21249267.040    87012195.636 8      1659.226          48.600    21249270.720    83386706.270 8      1590.110          52.700  
G17  22331628.220   117353502.689 7       557.943          47.900    22331629.040    91444305.831 7       434.758          47.950    22331629.600    91444295.592 7       434.758          44.650                                                                  
G19  23583286.300   123931009.834 7      1609.117          43.850    23583287.020    96569622.717 6      1253.855          40.300                                                                                                                                  
G21  23750638.780   124810412.699 7     -3169.634          46.250    23750639.800    97254838.166 6     -2469.846          39.150                                                                                                                                  
G22  22704576.160   119313353.755 8      -508.395          48.300    22704575.500    92971486.352 6      -396.153          40.850                                                                                                                                  
G28  22678143.200   119174454.802 7      2507.080          47.650    22678143.440    92863213.938 6      1953.567          40.100                                                                                                                                  
G30  21340761.400   112146461.691 8     -1161.013          49.250    21340764.640    87386858.253 8      -904.688          49.300    21340765.440    87386836.003 7      -904.688          47.950    21340765.560    83745743.020 8      -866.913          53.400  
R09  20296826.000   108383877.641 8     -2877.378          51.450    20296829.560    84298572.780 7     -2237.966          47.650    20296829.600    84298581.030 7     -2237.965          46.800  
R10  19341359.900   103100323.155 8       875.009          49.300                                                                                                                                  
R20  20828829.940   111381092.406 6     -2354.576          37.300    20828835.280    86629735.400 7     -1831.338          45.300    20828834.380    86629736.647 7     -1831.339          45.500  
R21  21027432.840   112522048.655 8       691.987          49.800    21027435.680    87517193.390 7       538.211          46.100    21027435.680    87517171.640 7       538.212          45.450  
E01  27706417.420   145598214.114 7      2651.293          43.400                                                                    27706423.740   108725972.454 7      1979.865          43.600  
E13  23629887.040   124175896.290 8     -1284.973          51.150    23629889.740    95147764.289 6      -984.537          39.400    23629891.800    92728749.878 8      -959.479          51.750  
E15  26936370.100   141551559.540 7     -2513.320          44.850    26936376.700   108461625.485 5     -1925.871          30.550    26936378.540   105704039.275 7     -1876.801          43.500  
E21  23972956.160   125978747.570 8      1372.223          50.600    23972959.640    96529165.427 6      1051.386          39.800    23972961.540    94075047.698 8      1024.735          51.600  
E26  24052012.220   126394201.801 8      1128.228          49.600    24052017.420    96847513.500 6       864.495          37.950    24052019.300    94385287.547 8       842.531          49.800  
E27  24045340.340   126359063.499 8     -1158.406          50.700    24045344.740    96820586.165 6      -887.620          39.000    24045346.800    94359027.302 8      -865.005          51.350  
C01  37373467.720   194613447.362 7         6.851          47.300                                                                  
C02  37116654.340   193276149.560 7        24.381          42.950                                                                  
C03  36383661.520   189459263.363 7        37.282          47.400    36383659.560   146501927.027 5        28.746          35.050  
C04  38344231.800   199668469.947 7         9.192          43.700                                                                  
C05  39259253.440   204433217.654 6        25.232          41.000                                                                  
C07  36037726.980   187657891.621 7       506.407          47.500    36037723.200   145108963.143 6       391.720          36.050  
C08  36444483.540   189775984.761 7       424.068          46.900    36444480.360   146746804.741 5       327.944          35.950  
C09  39526015.020   205822323.242 6     -1476.171          41.600                                                                  
C10  36601902.440   190595705.507 7       680.772          45.450    36601901.680   147380661.329 5       526.433          34.400  
C11  22742768.500   118427552.320 7     -1293.864          47.750    22742768.320    91575696.399 6     -1000.536          37.700  
C13  36903023.620   192163721.912 7       771.723          47.750    36903028.800   148593200.018 5       596.818          33.000  
C14  25254787.860   131508308.170 7      2171.854          42.300    25254788.660   101690565.349 4      1679.265          28.050  
C23  23219814.480   120911676.865 8      1537.342          49.700                                                                  
C24  25664631.320   133642457.935 7     -3222.699          47.150                                                                  
C25  22260719.920   115917392.968 8     -1416.979          50.500                                                                  
C28  24875357.540   129532512.261 7      1407.651          46.250                                                                  
> 2021 06 10 03 35 56.0000000  0 38                     
G01  21018266.420   110451725.601 8     -2580.587          49.150    21018269.860    86066286.538 8     -2010.850          49.150    21018269.940    86066290.292 8     -2010.850          48.650    21018269.400    82480199.486 8     -1926.985          52.350  
G03  22180650.280   116560114.776 8      1470.473          48.400    22180655.080    90826089.265 8      1145.822          48.600    22180655.980    90826093.018 7      1145.822          46.650    22180656.040    87041691.462 8      1098.063          50.700  
G06  23981276.680   126022472.680 7      3155.633          43.050    23981283.680    98199337.058 7      2458.934          42.900    23981284.600    98199336.816 7      2458.934          42.900    23981284.720    94107698.213 7      2356.469          45.300  
G07  22040526.360   115823712.877 8     -2997.090          48.950    22040528.720    90252222.677 8     -2335.397          48.600    22040529.160    90252239.435 7     -2335.397          43.300                                                                  
G08  24988764.640   131316814.926 6     -1838.848          40.500    24988771.760   102324820.705 6     -1432.862          36.450    24988772.340   102324782.453 6     -1432.867          40.000    24988771.760    98061189.651 7     -1372.996          42.750  
G14  21248860.520   111663514.499 8      2129.201          48.800    21248861.480    87010552.892 7      1659.116          44.950    21248861.900    87010536.643 8      1659.116          49.100    21248865.580    83385116.407 8      1589.949          52.500  
G17  22331522.100   117352945.083 7       557.672          47.600    22331522.940    91443871.331 7       434.548          47.750    22331523.480    91443861.089 7       434.547          44.800                                                                  
G19  23582980.120   123929400.940 7      1608.855          43.600    23582980.840    96568369.028 6      1253.652          40.550                                                                                                                                  
G21  23751241.940   124813582.429 7     -3169.527          46.150    23751243.000    97257308.083 6     -2469.764          39.500                                                                                                                                  
G22  22704672.960   119313862.482 8      -508.876          48.050    22704672.300    92971882.759 6      -396.528          41.250                                                                                                                                  
G28  22677666.120   119171947.772 7      2507.234          47.300    22677666.360    92861260.408 6      1953.689          40.200                                                                                                                                  
G30  21340982.400   112147623.038 8     -1161.524          49.100    21340985.640    87387763.197 8      -905.087          48.800    21340986.440    87387740.947 8      -905.088          48.600    21340986.560    83746610.260 8      -867.301          53.200  
R09  20297364.940   108386755.497 8     -2878.067          51.250    20297368.500    84300811.111 8     -2238.501          48.350    20297368.540    84300819.363 7     -2238.500          47.550  
R10  19341195.860   103099448.761 8       874.120          49.150                                                                                                                                  
R20  20829270.340   111383447.311 6     -2354.912          36.900    20829275.660    86631566.993 7     -1831.600          45.800    20829274.760    86631568.239 7     -1831.600          46.000  
R21  21027303.600   112521357.117 8       691.501          49.700    21027306.440    87516655.527 7       537.832          46.700    21027306.440    87516633.777 7       537.833          46.000  
E01  27705912.920   145595562.964 7      2651.344          43.300                                                                    27705919.240   108723992.695 7      1979.967          43.400  
E13  23630131.620   124177181.562 8     -1285.142          50.850    23630134.320    95148749.107 6      -984.659          39.250    23630136.380    92729709.667 8      -959.702          51.600  
E15  26936848.420   141554073.010 7     -2513.387          44.700    26936854.980   108463551.39115     -1925.842          30.600    26936856.840   105705916.198 7     -1876.629          43.100  
E21  23972695.100   125977375.675 8      1371.954          50.550    23972698.580    96528114.231 6      1051.173          39.550    23972700.480    94074023.235 8      1024.477          51.400  
E26  24051797.600   126393073.921 8      1127.800          49.350    24051802.800    96846649.281 6       864.162          37.850    24051804.660    94384445.291 8       842.364          49.600  
E27  24045560.840   126360222.250 8     -1158.841          50.650    24045565.240    96821474.021 6      -887.740          38.900    24045567.300    94359892.596 8      -865.277          51.300  
C01  37373466.440   194613440.676 7         6.795          47.050                                                                  
C02  37116649.780   193276125.742 7        24.115          43.050                                                                  
C03  36383654.380   189459226.251 7        37.240          47.350    36383652.420   146501898.315 5        28.884          34.850  
C04  38344230.040   199668460.769 7         9.416          43.250                                                                  
C05  39259248.700   204433192.885 6        24.807          40.750                                                                  
C07  36037629.740   187657385.285 7       506.440          47.250    36037625.960   145108571.626 5       391.659          35.900  
C08  36444402.140   189775560.900 7       423.935          46.750    36444398.980   146746476.997 5       327.741          35.500  
C09  39526298.480   205823799.365 6     -1475.857          41.350                                                                  
C10  36601771.760   190595024.946 7       680.636          45.200    36601770.980   147380135.077 5       526.377          34.100  
C11  22743017.040   118428846.499 7     -1294.112          47.600    22743016.860    91576697.137 6     -1000.680          37.400  
C13  36902875.480   192162950.451 7       771.436          47.550    36902880.640   148592603.473 5       596.709          32.650  
C14  25254370.880   131506136.822 7      2171.514          42.050    25254371.640   101688886.285 4      1679.359          28.300  
C23  23219519.340   120910139.996 8      1536.780          49.550                                                                  
C24  25665250.300   133645681.071 7     -3223.118          46.950                                                                  
C25  22260992.120   115918810.380 8     -1417.511          50.350                                                                  
C28  24875087.260   129531104.876 7      1407.477          46.150                                                                  
> 2021 06 10 03 35 57.0000000  0 38                     
G01  21018757.540   110454306.409 8     -2580.990          49.050    21018760.980    86068297.571 8     -2011.159          48.700    21018761.060    86068301.326 8     -2011.159          48.450    21018760.520    82482126.715 8     -1927.336          51.650  
G03  22180370.520   116558644.582 8      1469.950          48.650    22180375.320    90824943.674 8      1145.420          48.050    22180376.220    90824947.429 7      1145.420          47.000    22180376.280    87040593.587 8      1097.667          49.950  
G06  23980676.220   126019317.268 7      3155.296          43.050    23980683.220    98196878.309 7      2458.675          43.000    23980684.140    98196878.067 7      2458.676          43.000    23980684.260    94105341.897 7      2356.234          44.600  
G07  22041096.720   115826710.173 8     -2997.285          48.850    22041099.100    90254558.249 8     -2335.545          48.600    22041099.540    90254575.005 7     -2335.544          43.550                                                                  
G08  24989114.540   131318653.558 6     -1838.770          40.750    24989121.660   102326253.424 5     -1432.800          34.450    24989122.220   102326215.173 6     -1432.802          39.800    24989121.660    98062562.653 6     -1372.990          41.750  
G14  21248455.420   111661385.607 8      2128.764          48.850    21248456.360    87008894.032 7      1658.780          45.350    21248456.780    87008877.782 8      1658.780          49.150    21248460.460    83383526.645 8      1589.704          51.850  
G17  22331415.980   117352387.384 7       557.677          47.700    22331416.840    91443436.781 7       434.557          47.950    22331417.380    91443426.537 7       434.557          45.400                                                                  
G19  23582673.940   123927792.019 7      1608.990          43.850    23582674.660    96567115.342 6      1253.761          40.650                                                                                                                                  
G21  23751845.100   124816752.061 7     -3169.712          46.300    23751846.160    97259777.939 6     -2469.902          38.900                                                                                                                                  
G22  22704769.860   119314371.645 8      -509.312          48.250    22704769.200    92972279.528 7      -396.862          42.850                                                                                                                                  
G28  22677189.020   119169440.652 7      2507.038          47.350    22677189.280    92859306.830 6      1953.541          41.050                                                                                                                                  
G30  21341203.480   112148784.813 8     -1161.978          49.250    21341206.720    87388668.491 8      -905.436          48.900    21341207.540    87388646.239 8      -905.436          48.750    21341207.640    83747477.819 8      -867.709          52.550  
R09  20297903.980   108389633.893 8     -2878.692          51.200    20297907.520    84303049.881 8     -2238.981          48.900    20297907.580    84303058.131 7     -2238.980          47.900  
R10  19341031.940   103098575.074 8       873.398          49.300                                                                                                                                  
R20  20829710.760   111385802.234 6     -2355.050          36.700    20829716.040    86633398.612 7     -1831.702          46.450    20829715.120    86633399.858 7     -1831.703          46.650  
R21  21027174.440   112520665.921 8       691.042          49.750    21027177.280    87516117.942 7       537.480          47.450    21027177.280    87516096.192 7       537.480          46.650  
E01  27705408.400   145592911.694 7      2651.350          43.350                                                                    27705414.720   108722012.860 7      1979.907          42.750  
E13  23630376.220   124178466.941 8     -1285.353          50.950    23630378.920    95149734.018 6      -985.091          39.550    23630380.980    92730669.528 8      -959.946          50.850  
E15  26937326.680   141556586.281 7     -2513.248          44.950    26937333.220   108465477.112 5     -1925.467          31.150    26937335.100   105707793.000 7     -1876.713          42.500  
E21  23972434.080   125976003.948 8      1371.708          50.550    23972437.540    96527063.165 6      1051.001          39.650    23972439.440    94072998.891 8      1024.242          50.700  
E26  24051583.000   126391946.235 8      1127.583          49.500    24051588.200    96845785.212 6       863.974          37.950    24051590.080    94383603.198 8       842.012          48.950  
E27  24045781.400   126361381.233 8     -1159.087          50.850    24045785.780    96822362.087 6      -888.185          39.200    24045787.860    94360758.070 8      -865.562          50.550  
C01  37373465.140   194613433.852 7         6.965          47.300                                                                  
C02  37116645.180   193276101.775 7        24.053          42.900                                                                  
C03  36383647.240   189459189.024 7        37.138          47.300    36383645.280   146501869.533 5        28.761          35.050  
C04  38344228.260   199668451.480 7         9.327          43.500                                                                  
C05  39259243.920   204433167.969 6        25.034          40.700                                                                  
C07  36037532.500   187656878.871 7       506.547          47.250    36037528.700   145108180.034 6       391.671          36.000  
C08  36444320.760   189775137.107 7       423.670          46.800    36444317.580   146746149.288 5       327.595          35.850  
C09  39526581.920   205825275.293 6     -1475.800          41.350                                                                  
C10  36601641.040   190594344.248 7       680.645          45.050    36601640.260   147379608.719 5       526.389          34.400  
C11  22743265.560   118430140.605 7     -1294.087          47.750    22743265.380    91577697.818 6     -1000.681          37.650  
C13  36902727.320   192162178.987 7       771.455          47.500    36902732.480   148592006.941 5       596.517          32.850  
C14  25253953.840   131503965.191 6      2171.888          41.900    25253954.680   101687207.057 4      1679.284          28.550  
C23  23219224.260   120908603.452 8      1536.307          49.600                                                                  
C24  25665869.260   133648904.151 7     -3223.150          47.100                                                                  
C25  22261264.380   115920228.145 8     -1417.964          50.350                                                                  
C28  24874817.000   129529697.558 7      1407.291          46.050                                                                  
> 2021 06 10 03 35 58.0000000  0 38                     
G01  21019248.720   110456887.583 8     -2581.137          48.950    21019252.160    86070308.880 8     -2011.273          49.300    21019252.240    86070312.632 8     -2011.273          48.700    21019251.700    82484054.216 8     -1927.567          51.650  
G03  22180090.840   116557174.828 8      1469.718          48.600    22180095.640    90823798.417 8      1145.238          48.800    22180096.520    90823802.168 7      1145.237          47.050    22180096.580    87039496.045 8      1097.447          49.900  
G06  23980075.800   126016162.095 7      3155.321          43.350    23980082.800    98194419.739 7      2458.695          43.700    23980083.720    98194419.497 7      2458.695          42.950    23980083.860    94102985.769 7      2356.085          44.500  
G07  22041667.120   115829707.724 8     -2997.374          48.950    22041669.520    90256894.003 8     -2335.615          49.150    22041669.960    90256910.761 7     -2335.614          43.750                                                                  
G08  24989464.400   131320492.132 6     -1838.561          40.200    24989471.560   102327686.079 6     -1432.641          38.500    24989472.100   102327647.837 6     -1432.639          40.150    24989471.540    98063935.618 6     -1373.028          41.550  
G14  21248050.340   111659256.929 8      2128.793          48.800    21248051.280    87007235.332 7      1658.804          45.350    21248051.700    87007219.080 8      1658.804          49.250    21248055.400    83381937.056 8      1589.593          51.850  
G17  22331309.860   117351829.691 7       557.968          47.700    22331310.720    91443002.219 8       434.782          48.100    22331311.260    91442991.973 7       434.781          45.300                                                                  
G19  23582367.780   123926183.171 7      1609.151          43.850    23582368.500    96565861.695 6      1253.888          40.600                                                                                                                                  
G21  23752448.260   124819921.699 7     -3169.475          46.250    23752449.360    97262247.790 6     -2469.718          39.800                                                                                                                                  
G22  22704866.840   119314881.355 8      -509.663          48.100    22704866.200    92972676.710 7      -397.136          42.500                                                                                                                                  
G28  22676711.940   119166933.540 7      2507.273          47.100    22676712.180    92857353.241 6      1953.724          40.350                                                                                                                                  
G30  21341424.660   112149947.146 8     -1162.492          49.250    21341427.920    87389574.208 8      -905.838          49.650    21341428.720    87389551.957 8      -905.838          48.750    21341428.840    83748345.791 8      -868.119          52.550  
R09  20298443.120   108392512.927 8     -2879.217          51.300    20298446.680    84305289.130 8     -2239.390          49.150    20298446.720    84305297.382 8     -2239.390          48.300  
R10  19340868.200   103097702.197 8       872.703          49.350                                                                                                                                  
R20  20830151.140   111388157.269 6     -2354.877          37.250    20830156.460    86635230.308 7     -1831.569          46.850    20830155.540    86635231.553 7     -1831.570          46.850  
R21  21027045.360   112519975.166 8       690.789          49.550    21027048.200    87515580.697 7       537.284          47.600    21027048.200    87515558.943 7       537.284          46.750  
E01  27704903.860   145590260.395 7      2651.368          43.550                                                                    27704910.200   108720033.002 7      1979.863          42.650  
E13  23630620.860   124179752.538 8     -1285.549          50.900    23630623.560    95150719.078 6      -985.085          39.250    23630625.620    92731629.549 8      -960.020          50.850  
E15  26937804.940   141559099.501 7     -2513.148          44.850    26937811.460   108467402.867 5     -1926.011          30.550    26937813.360   105709669.746 7     -1876.549          42.300  
E21  23972173.100   125974632.502 8      1371.480          50.500    23972176.560    96526012.305 6      1050.860          39.600    23972178.480    94071974.753 8      1024.115          50.700  
E26  24051368.480   126390818.864 8      1127.491          49.300    24051373.680    96844921.393 6       863.680          37.850    24051375.560    94382761.334 8       841.803          48.900  
E27  24046002.000   126362540.570 8     -1159.342          50.750    24046006.400    96823250.410 6      -888.402          38.750    24046008.480    94361623.810 8      -865.812          50.550  
C01  37373463.820   194613427.041 7         6.990          47.250                                                                  
C02  37116640.580   193276077.799 7        24.098          43.050                                                                  
C03  36383640.080   189459151.764 7        37.461          47.350    36383638.140   146501840.733 5        28.817          34.900  
C04  38344226.480   199668442.169 7         9.660          43.300                                                                  
C05  39259239.120   204433143.060 6        25.129          40.700                                                                  
C07  36037435.260   187656372.493 7       506.636          47.400    36037431.460   145107788.469 5       391.601          35.750  
C08  36444239.400   189774713.478 7       423.647          46.800    36444236.240   146745821.705 5       327.619          35.750  
C09  39526865.340   205826751.097 6     -1475.516          41.000                                                                  
C10  36601510.300   190593663.523 7       680.857          45.100    36601509.540   147379082.336 5       526.469          34.300  
C11  22743514.080   118431434.732 7     -1293.979          47.950    22743513.900    91578698.521 6     -1000.655          37.400  
C13  36902579.200   192161407.680 7       771.476          47.600    36902584.360   148591410.517 5       596.358          32.800  
C14  25253536.780   131501793.445 6      2172.023          41.950    25253537.700   101685527.728 4      1679.449          27.650  
C23  23218929.260   120907067.354 8      1535.952          49.650                                                                  
C24  25666488.240   133652127.300 7     -3222.975          47.150                                                                  
C25  22261536.720   115921646.374 8     -1418.214          50.300                                                                  
C28  24874546.780   129528290.428 7      1407.313          46.450                                                                  
> 2021 06 10 03 35 59.0000000  0 39                     
G01  21019739.960   110459469.059 8     -2581.434          48.800    21019743.400    86072320.435 8     -2011.501          48.800    21019743.480    86072324.190 8     -2011.501          48.750    21019742.940    82485981.940 8     -1927.679          51.250  
G03  22179811.220   116555705.433 8      1469.483          48.400    22179816.020    90822653.449 8      1145.059          48.000    22179816.900    90822657.201 7      1145.059          47.250    22179816.960    87038398.769 8      1097.346          49.600  
G06  23979475.440   126013007.129 7      3155.016          43.200    23979482.420    98191961.336 7      2458.461          43.050    23979483.320    98191961.092 7      2458.460          43.000    23979483.480    94100629.766 7      2356.128          44.150  
G07  22042237.580   115832705.436 8     -2997.515          48.850    22042239.980    90259229.898 8     -2335.721          48.900    22042240.400    90259246.658 7     -2335.720          43.750                                                                  
G08  24989814.260   131322330.551 6     -1838.190          40.250    24989821.380   102329118.623 6     -1432.348          36.000    24989821.940   102329080.391 6     -1432.347          40.150    24989821.380    98065308.448 6     -1372.499          41.100  
G14  21247645.300   111657128.430 8      2128.572          48.700    21247646.240    87005576.776 7      1658.635          45.700    21247646.660    87005560.525 8      1658.635          49.500    21247650.360    83380347.584 8      1589.559          51.450  
G17  22331203.720   117351271.966 7       557.975          47.750    22331204.600    91442567.644 7       434.792          47.800    22331205.120    91442557.401 7       434.792          45.650                                                                  
G19  23582061.620   123924574.324 7      1609.205          43.850    23582062.360    96564608.076 6      1253.936          40.150                                                                                                                                  
G21  23753051.420   124823091.250 7     -3169.438          46.150    23753052.500    97264717.585 6     -2469.687          39.350                                                                                                                                  
G22  22704963.920   119315391.537 8      -510.065          48.100    22704963.280    92973074.269 7      -397.446          42.950                                                                                                                                  
G28  22676234.820   119164426.384 7      2507.370          47.150    22676235.080    92855399.633 6      1953.803          40.150                                                                                                                                  
G30  21341645.920   112151109.917 8     -1162.689          49.050    21341649.180    87390480.276 8      -905.987          49.300    21341649.980    87390458.026 8      -905.987          48.950    21341650.100    83749214.098 8      -868.323          52.200  
R05  24086559.140                        2236.196          32.300                                                                                                                                  
R09  20298982.400   108395392.507 8     -2879.684          51.100    20298985.940    84307528.824 8     -2239.749          49.250    20298986.000    84307537.072 8     -2239.749          48.350  
R10  19340704.580   103096830.053 8       871.957          49.300                                                                                                                                  
R20  20830591.560   111390512.356 6     -2354.941          36.700    20830596.880    86637062.054 7     -1831.615          46.850    20830595.940    86637063.299 7     -1831.616          46.950  
R21  21026916.340   112519284.741 8       690.554          49.600    21026919.180    87515043.716 7       537.104          47.500    21026919.180    87515021.964 7       537.104          46.900  
E01  27704399.320   145587609.024 7      2651.494          43.550                                                                    27704405.640   108718053.065 7      1980.161          42.300  
E13  23630865.520   124181038.264 8     -1285.600          50.850    23630868.220    95151704.232 6      -985.077          39.000    23630870.280    92732589.671 8      -960.056          50.550  
E15  26938283.160   141561612.562 7     -2512.763          44.600    26938289.680   108469328.446 5     -1925.585          30.050    26938291.580   105711546.392 6     -1876.577          41.850  
E21  23971912.160   125973261.239 8      1371.356          50.400    23971915.640    96524961.606 6      1050.742          39.200    23971917.520    94070950.761 8      1024.042          50.400  
E26  24051153.980   126389691.733 8      1127.261          49.350    24051159.180    96844057.739 6       863.715          37.400    24051161.060    94381919.643 8       841.741          48.650  
E27  24046222.680   126363700.188 8     -1159.581          50.750    24046227.060    96824138.947 6      -888.558          38.650    24046229.140    94362489.753 8      -865.940          50.150  
C01  37373462.500   194613420.115 7         7.325          47.200                                                                  
C02  37116635.960   193276053.731 7        24.337          42.900                                                                  
C03  36383632.920   189459114.433 7        37.634          47.400    36383630.880   146501811.871 5        28.923          34.600  
C04  38344224.680   199668432.796 7         9.409          43.400                                                                  
C05  39259234.320   204433118.062 6        25.216          40.850                                                                  
C07  36037338.000   187655866.066 7       506.788          47.500    36037334.200   145107396.867 5       391.834          35.650  
C08  36444158.060   189774289.943 7       423.660          46.850    36444154.900   146745494.198 5       327.603          35.500  
C09  39527148.720   205828226.728 6     -1475.226          41.000                                                                  
C10  36601379.560   190592982.671 7       681.204          45.250    36601378.800   147378555.868 5       526.651          34.000  
C11  22743762.580   118432728.802 7     -1293.636          47.900    22743762.420    91579699.190 6     -1000.423          37.100  
C13  36902431.100   192160636.463 7       771.395          47.650    36902436.260   148590814.163 5       596.443          32.450  
C14  25253119.680   131499621.511 7      2172.295          42.100    25253120.520   101683848.235 4      1679.815          27.600  
C23  23218634.340   120905531.618 8      1535.616          49.700                                                                  
C24  25667107.200   133655350.447 7     -3222.831          47.100                                                                  
C25  22261809.160   115923064.986 8     -1418.564          50.400                                                                  
C28  24874276.580   129526883.416 7      1407.132          46.500                                                                  
> 2021 06 10 03 36 00.0000000  0 39                     
G01  21020231.260   110462050.884 8     -2582.134          49.000    21020234.720    86074332.262 8     -2012.045          49.100    21020234.800    86074336.018 8     -2012.045          49.150    21020234.240    82487909.922 8     -1928.185          51.100  
G03  22179531.700   116554236.477 8      1468.674          48.450    22179536.500    90821508.824 7      1144.430          47.900    22179537.380    90821512.579 7      1144.431          47.900    22179537.420    87037301.822 8      1096.774          49.400  
G06  23978875.100   126009852.361 7      3154.626          43.350    23978882.080    98189503.089 7      2458.158          43.650    23978883.000    98189502.847 7      2458.157          43.350    23978883.140    94098273.944 7      2355.680          44.050  
G07  22042808.060   115835703.375 8     -2998.107          49.050    22042810.460    90261565.970 8     -2336.181          49.500    22042810.900    90261582.727 7     -2336.180          44.250                                                                  
G08  24990164.100   131324168.841 6     -1838.174          40.100    24990171.220   102330551.075 6     -1432.334          37.900    24990171.780   102330512.840 6     -1432.333          40.000    24990171.220    98066681.226 6     -1372.640          40.750  
G14  21247240.300   111655000.125 8      2128.246          48.700    21247241.240    87003918.372 7      1658.382          45.950    21247241.660    87003902.122 8      1658.383          49.750    21247245.360    83378758.273 8      1589.171          51.350  
G17  22331097.600   117350714.233 7       557.641          47.750    22331098.480    91442133.066 7       434.534          47.750    22331099.000    91442122.820 7       434.533          46.200                                                                  
G19  23581755.460   123922965.531 7      1608.807          44.000    23581756.240    96563354.492 6      1253.627          41.750                                                                                                                                  
G21  23753654.560   124826260.767 7     -3169.699          46.000    23753655.660    97267187.348 6     -2469.889          40.500                                                                                                                                  
G22  22705061.100   119315902.256 8      -511.007          48.350    22705060.480    92973472.246 7      -398.180          42.350                                                                                                                                  
G28  22675757.720   119161919.220 7      2507.022          47.350    22675757.980    92853446.013 6      1953.534          41.350                                                                                                                                  
G30  21341867.280   112152273.219 8     -1163.706          48.950    21341870.560    87391386.757 8      -906.777          48.850    21341871.360    87391364.508 8      -906.777          49.450    21341871.480    83750082.785 8      -868.948          52.050  
R05  24086136.380                        2235.775          30.250    24086144.620                        1738.937          27.700    24086141.240                        1738.937          27.300  
R09  20299521.760   108398272.692 8     -2880.579          51.250    20299525.300    84309768.978 8     -2240.443          49.750    20299525.360    84309777.226 8     -2240.444          48.750  
R10  19340541.120   103095958.687 8       871.018          49.200                                                                                                                                  
R20  20831031.980   111392867.573 6     -2355.541          36.950    20831037.320    86638893.903 7     -1832.081          47.150    20831036.380    86638895.147 7     -1832.082          47.250  
R21  21026787.400   112518594.725 8       689.742          49.700    21026790.240    87514507.054 7       536.476          47.850    21026790.240    87514485.301 7       536.476          47.250  
E01  27703894.760   145584957.601 7      2651.336          43.600                                                                    27703901.100   108716073.116 7      1979.932          42.200  
E13  23631110.220   124182324.182 8     -1286.046          50.900    23631112.920    95152689.546 6      -985.330          39.600    23631114.980    92733549.931 8      -960.399          50.300  
E15  26938761.360   141564125.538 7     -2512.885          44.650    26938767.880   108471253.978 5     -1925.723          30.300    26938769.800   105713422.971 6     -1876.704          41.550  
E21  23971651.260   125971890.232 8      1370.740          50.600    23971654.740    96523911.090 6      1050.417          39.750    23971656.640    94069926.945 8      1023.703          50.200  
E26  24050939.560   126388564.893 8      1126.533          49.450    24050944.740    96843194.298 6       863.430          38.050    24050946.640    94381078.160 8       841.398          48.550  
E27  24046443.400   126364860.129 8     -1160.150          50.850    24046447.780    96825027.719 6      -888.824          39.000    24046449.880    94363355.941 8      -866.361          50.050  
C01  37373461.160   194613413.179 7         6.883          47.500                                                                  
C02  37116631.320   193276029.637 7        24.072          43.200                                                                  
C03  36383625.740   189459077.079 7        37.222          47.550    36383623.660   146501782.954 5        29.034          35.050  
C04  38344222.860   199668423.376 7         9.340          43.400                                                                  
C05  39259229.520   204433093.028 6        24.981          41.100                                                                  
C07  36037240.760   187655359.655 7       506.176          47.550    36037236.940   145107005.268 6       391.502          36.100  
C08  36444076.760   189773866.564 7       423.255          46.950    36444073.600   146745166.811 5       327.316          35.950  
C09  39527432.080   205829702.229 6     -1475.271          41.300                                                                  
C10  36601248.820   190592301.809 7       680.825          45.350    36601248.040   147378029.374 5       526.383          34.500  
C11  22744011.100   118434022.914 8     -1294.214          48.050    22744010.940    91580699.859 6     -1000.605          37.700  
C13  36902283.020   192159865.351 7       771.003          47.800    36902288.180   148590217.890 5       596.050          32.950  
C14  25252702.540   131497449.442 7      2171.788          42.300    25252703.360   101682168.683 4      1679.371          28.350  
C23  23218339.500   120903996.291 8      1535.066          49.700                                                                  
C24  25667726.180   133658573.649 7     -3223.294          47.100                                                                  
C25  22262081.660   115924484.049 8     -1419.359          50.400                                                                  
C28  24874006.400   129525476.536 7      1406.670          46.300                                                                  
> 2021 06 10 03 36 01.0000000  0 39                     
G01  21020722.640   110464633.153 8     -2582.351          48.900    21020726.100    86076344.428 8     -2012.214          48.700    21020726.180    86076348.182 8     -2012.214          48.300    21020725.640    82489838.242 8     -1928.384          50.900  
G03  22179252.260   116552768.050 8      1468.275          48.500    22179257.060    90820364.605 8      1144.120          48.300    22179257.940    90820368.360 7      1144.120          46.900    22179257.980    87036205.267 8      1096.510          49.300  
G06  23978274.840   126006697.952 7      3154.417          43.500    23978281.800    98187045.117 7      2457.994          43.350    23978282.720    98187044.873 7      2457.994          42.600    23978282.880    94095918.372 7      2355.643          44.050  
G07  22043378.620   115838701.633 8     -2998.005          49.000    22043381.020    90263902.279 8     -2336.101          49.250    22043381.440    90263919.040 7     -2336.100          43.550                                                                  
G08  24990513.940   131326007.171 6     -1838.113          40.700    24990521.060   102331983.559 6     -1432.286          38.350    24990521.600   102331945.314 6     -1432.286          39.300    24990521.040    98068053.995 6     -1372.622          40.500  
G14  21246835.360   111652872.161 8      2127.985          48.800    21246836.300    87002260.227 7      1658.178          45.100    21246836.720    87002243.981 8      1658.179          49.000    21246840.420    83377169.203 8      1589.086          51.200  
G17  22330991.480   117350156.609 7       557.838          47.850    22330992.380    91441698.567 7       434.689          47.900    22330992.900    91441688.321 7       434.688          45.200                                                                  
G19  23581449.340   123921356.904 7      1608.479          44.000    23581450.120    96562101.023 6      1253.368          40.700                                                                                                                                  
G21  23754257.720   124829430.378 7     -3169.650          45.750    23754258.820    97269657.183 6     -2469.851          40.900                                                                                                                                  
G22  22705158.400   119316413.586 8      -511.459          48.250    22705157.780    92973870.690 6      -398.533          41.200                                                                                                                                  
G28  22675280.640   119159412.155 7      2507.412          47.150    22675280.900    92851492.464 6      1953.837          39.750                                                                                                                                  
G30  21342088.780   112153437.138 8     -1164.054          48.900    21342092.040    87392293.714 8      -907.049          49.200    21342092.860    87392271.466 8      -907.049          48.650    21342092.960    83750951.942 8      -869.257          51.900  
R05  24085724.120                        2235.326          30.200    24085728.140                        1738.587          26.900    24085726.600                        1738.587          26.850  
R09  20300061.260   108401153.597 8     -2881.124          51.200    20300064.820    84312009.686 8     -2240.868          49.150    20300064.880    84312017.932 7     -2240.868          47.900  
R10  19340377.820   103095088.241 8       870.174          49.100                                                                                                                                  
R20  20831472.480   111395223.001 6     -2355.676          36.700    20831477.780    86640725.907 7     -1832.187          46.400    20831476.840    86640727.149 7     -1832.188          46.650  
R21  21026658.560   112517905.268 8       689.317          49.900    21026661.400    87513970.818 7       536.144          47.150    21026661.400    87513949.065 7       536.144          46.350  
E01  27703390.220   145582306.255 7      2651.440          43.700                                                                    27703396.560   108714093.218 7      1979.905          42.100  
E13  23631354.980   124183610.412 8     -1286.256          51.000    23631357.680    95153675.101 6      -985.579          38.950    23631359.740    92734510.423 8      -960.479          50.200  
E15  26939239.560   141566638.528 7     -2512.730          44.850    26939246.100   108473179.47115     -1925.130          30.050    26939248.000   105715299.541 6     -1876.470          41.000  
E21  23971390.440   125970519.572 8      1370.677          50.550    23971393.920    96522860.855 6      1050.136          39.300    23971395.800    94068903.410 8      1023.578          50.050  
E26  24050725.200   126387438.450 8      1126.339          49.550    24050730.400    96842331.187 6       863.019          37.400    24050732.280    94380236.981 8       841.229          48.300  
E27  24046664.220   126366020.515 8     -1160.410          50.800    24046668.600    96825916.843 6      -889.113          38.850    24046670.700    94364222.461 8      -866.575          49.900  
C01  37373459.840   194613406.308 7         7.001          47.400                                                                  
